{
  "database_name": "German Worker-Owned Business Directory",
  "version": "1.0",
  "created": "2026-07-02",
  "sources": [
    "worker-coops.de",
    "wikipedia.org",
    "github.com/hng/tech-coops"
  ],
  "total_entries": 62,
  "entries": [
    {
      "name": "about blank",
      "url": "https://aboutblank.berlin",
      "description": "Club in Berlin",
      "governance": "worker_majority",
      "legal_form": "",
      "source": "worker-coops.de",
      "sector": "Entertainment / Culture",
      "location": "Friedrichshain",
      "id": "WCOOP-0001",
      "lat": 52.5024767,
      "lng": 13.466302,
      "remote": false,
      "wikidata_id": "Q130537573"
    },
    {
      "name": "akomo eG",
      "url": "https://akomo.org/",
      "description": "",
      "governance": "worker_majority",
      "legal_form": "eG",
      "source": "worker-coops.de",
      "sector": "IT / Software",
      "location": "Neukölln",
      "id": "WCOOP-0002",
      "lat": 52.4791786,
      "lng": 13.4322498,
      "remote": false,
      "wikidata_id": "Q130537671"
    },
    {
      "name": "Basisgemeinde Wulfshagenerhütten eG",
      "url": "https://www.basisgemeinde.de/index.html",
      "description": "Holzspielgeräte",
      "governance": "worker_majority",
      "legal_form": "eG",
      "source": "worker-coops.de",
      "sector": "Woodworking / Carpentry",
      "location": "Wulfshagenerhütten",
      "id": "WCOOP-0003",
      "lat": 54.379491,
      "lng": 9.9574585,
      "remote": false
    },
    {
      "name": "blinkenbox",
      "url": "https://blinkenbox.coop/",
      "description": "",
      "governance": "worker_majority",
      "legal_form": "",
      "source": "github-tech-coops",
      "sector": "IT / Software",
      "location": "Tempelhof",
      "id": "WCOOP-0004",
      "lat": 52.4639497,
      "lng": 13.4029018,
      "remote": false,
      "wikidata_id": "Q130538048"
    },
    {
      "name": "Chic eG – Friseurgenossenschaft Saalfeld",
      "url": "https://friseure-chic.de/startseite.html",
      "description": "Friseursalons in Thüringen",
      "governance": "worker_majority",
      "legal_form": "eG",
      "source": "worker-coops.de",
      "sector": "Hair / Beauty",
      "location": "Saalfeld/Saale",
      "id": "WCOOP-0005",
      "lat": 50.6128708,
      "lng": 11.3012115,
      "remote": false
    },
    {
      "name": "control.alt.coop",
      "url": "https://control.alt.coop/",
      "description": "",
      "governance": "worker_majority",
      "legal_form": "",
      "source": "worker-coops.de",
      "sector": "IT / Software",
      "location": "Friedrichshain",
      "id": "WCOOP-0006",
      "lat": 52.5122697,
      "lng": 13.4394216,
      "remote": false,
      "wikidata_id": "Q130538317"
    },
    {
      "name": "CoQuest - IT Coop Stuttgart",
      "url": "https://coquest.coop/",
      "description": "Free Software for the Common Good. We seek to cooperate with coops, non-profits, initiatives of the community supported economy, as well as works councils and trade unions. [Remote-first, no public office address]",
      "governance": "worker_majority",
      "legal_form": "",
      "source": "github-tech-coops",
      "sector": "IT / Software",
      "location": "Stuttgart",
      "id": "WCOOP-0007",
      "lat": 48.775,
      "lng": 9.183,
      "remote": true
    },
    {
      "name": "Cosmo Kurier",
      "url": "https://cosmokurier.de/",
      "description": "",
      "governance": "worker_majority",
      "legal_form": "",
      "source": "worker-coops.de",
      "sector": "Logistics / Transport",
      "location": "Lichtenberg",
      "id": "WCOOP-0008",
      "lat": 52.524468,
      "lng": 13.4819893,
      "remote": false
    },
    {
      "name": "DADEGO Dachdecker-Genossenschaft Bremen eG",
      "url": "https://dadego.de/kontakt/",
      "description": "Dachdeckerdienstleistungen",
      "governance": "worker_majority",
      "legal_form": "eG",
      "source": "worker-coops.de",
      "sector": "Construction / Trades",
      "location": "Obervieland",
      "id": "WCOOP-0009",
      "lat": 53.0399903,
      "lng": 8.8496908,
      "remote": false
    },
    {
      "name": "datenkollektiv.net",
      "url": "https://www.datenkollektiv.net",
      "description": "",
      "governance": "worker_majority",
      "legal_form": "",
      "source": "github-tech-coops",
      "sector": "IT / Software",
      "location": "Loschwitz",
      "id": "WCOOP-0010",
      "lat": 51.0914312,
      "lng": 13.8272569,
      "remote": false
    },
    {
      "name": "Die Werftgenossen",
      "url": "https://diewerftgenossen.de/",
      "description": "",
      "governance": "worker_majority",
      "legal_form": "",
      "source": "worker-coops.de",
      "sector": "IT / Software",
      "location": "Stadtrandsiedlung",
      "id": "WCOOP-0011",
      "lat": 54.0844005,
      "lng": 13.3745924,
      "remote": false
    },
    {
      "name": "Die Werkstatt – Spielart – Heidelberg eG",
      "url": "https://www.werkstatt-spielart.de",
      "description": "Herstellung von Spielräumen",
      "governance": "worker_majority",
      "legal_form": "eG",
      "source": "worker-coops.de",
      "sector": "Entertainment / Culture",
      "location": "Heidelberg",
      "id": "WCOOP-0012",
      "lat": 49.4088237,
      "lng": 8.6514689,
      "remote": false
    },
    {
      "name": "Fairdruckt eG",
      "url": "https://www.fairdruckt.de",
      "description": "Druckdienstleistungen",
      "governance": "worker_majority",
      "legal_form": "eG",
      "source": "worker-coops.de",
      "sector": "Printing / Publishing",
      "location": "Münster",
      "id": "WCOOP-0013",
      "lat": 51.9496135,
      "lng": 7.6340873,
      "remote": false
    },
    {
      "name": "Finkhof",
      "url": "https://www.finkhof.de/start/",
      "description": "Wollartikel, Lebensmittel und Pflegeprodukte",
      "governance": "worker_majority",
      "legal_form": "",
      "source": "worker-coops.de",
      "sector": "Food / Agriculture",
      "location": "Wurzach",
      "id": "WCOOP-0014",
      "lat": 47.910106,
      "lng": 9.9090894,
      "remote": false
    },
    {
      "name": "fnordkollektiv",
      "url": "https://fnordkollektiv.de",
      "description": "Founded 2020",
      "governance": "worker_majority",
      "legal_form": "",
      "source": "github-tech-coops",
      "sector": "IT / Software",
      "location": "Siegen, NRW, Germany",
      "id": "WCOOP-0015",
      "lat": 50.875,
      "lng": 8.024,
      "remote": false
    },
    {
      "name": "Friseur & Kosmetik eG „Charmant“",
      "url": "https://www.friseur-charmant.de",
      "description": "Frisuren und kosmetische Behandlungen",
      "governance": "worker_majority",
      "legal_form": "eG",
      "source": "worker-coops.de",
      "sector": "Hair / Beauty",
      "location": "Netzschkau",
      "id": "WCOOP-0016",
      "lat": 50.6119367,
      "lng": 12.245664,
      "remote": false
    },
    {
      "name": "Friseursalon der Pasewalker Friseure eG",
      "url": "https://www.instagram.com/pasewalkerfriseure/",
      "description": "",
      "governance": "worker_majority",
      "legal_form": "eG",
      "source": "worker-coops.de",
      "sector": "Hair / Beauty",
      "location": "Pasewalk",
      "id": "WCOOP-0017",
      "lat": 53.506,
      "lng": 13.99,
      "remote": false
    },
    {
      "name": "Geraer Ofenbauergenossenschaft eG",
      "url": "https://www.geraer-ofenbauergenossenschaft.de",
      "description": "Ofenbau und Heizungstechnik",
      "governance": "worker_majority",
      "legal_form": "eG",
      "source": "worker-coops.de",
      "sector": "Construction / Trades",
      "location": "Gera",
      "id": "WCOOP-0018",
      "lat": 50.8770618,
      "lng": 12.0392521,
      "remote": false
    },
    {
      "name": "Glas & Design „Diamant“ eG",
      "url": "https://www.diamant-dessau.de/impressum/",
      "description": "Glas- und Design-Spezialisten",
      "governance": "worker_majority",
      "legal_form": "eG",
      "source": "worker-coops.de",
      "sector": "Design / Crafts",
      "location": "Waldersee",
      "id": "WCOOP-0019",
      "lat": 51.8511572,
      "lng": 12.2697459,
      "remote": false
    },
    {
      "name": "Zimmerei Grünspecht",
      "url": "https://www.zimmerei-gruenspecht.de/",
      "description": "Holzbau und Renovierungen",
      "governance": "unknown",
      "legal_form": "",
      "source": "wikipedia",
      "sector": "Woodworking / Carpentry",
      "location": "Hochdorf",
      "id": "WCOOP-0020",
      "lat": 48.0405152,
      "lng": 7.8283368,
      "remote": false
    },
    {
      "name": "Gärtnerei Ulenburg eG",
      "url": "https://ulenburg.de/",
      "description": "Biologischer Gemüsehof in Niedersachsen",
      "governance": "worker_majority",
      "legal_form": "eG",
      "source": "worker-coops.de",
      "sector": "Food / Agriculture",
      "location": "Gohfeld",
      "id": "WCOOP-0021",
      "lat": 52.1991842,
      "lng": 8.7224451,
      "remote": false
    },
    {
      "name": "Habitat Weine eG",
      "url": "https://habitat-weine.de",
      "description": "Genossenschaftliches Weingut",
      "governance": "worker_majority",
      "legal_form": "eG",
      "source": "worker-coops.de",
      "sector": "Food / Agriculture",
      "location": "Langenlonsheim-Stromberg",
      "id": "WCOOP-0022",
      "lat": 49.9326902,
      "lng": 7.8596657,
      "remote": false
    },
    {
      "name": "Hand in Hand eG",
      "url": "https://www.handinhandeg.de",
      "description": "Tischlerei",
      "governance": "worker_majority",
      "legal_form": "eG",
      "source": "worker-coops.de",
      "sector": "Woodworking / Carpentry",
      "location": "Historische Innenstadt",
      "id": "WCOOP-0023",
      "lat": 52.4030431,
      "lng": 13.0670995,
      "remote": false
    },
    {
      "name": "Haus & Garten eG",
      "url": "https://hausgarten.org/",
      "description": "Dienstleistungen rund um Haus und Garten",
      "governance": "worker_majority",
      "legal_form": "eG",
      "source": "worker-coops.de",
      "sector": "Food / Agriculture",
      "location": "Kirchzarten (Kernort)",
      "id": "WCOOP-0024",
      "lat": 47.9628259,
      "lng": 7.9506508,
      "remote": false,
      "wikidata_id": "Q16784865"
    },
    {
      "name": "HausGemacht eG",
      "url": "https://www.hausgemacht-muenchen.de",
      "description": "Hauswirtschaftliche Dienstleistungen",
      "governance": "worker_majority",
      "legal_form": "eG",
      "source": "worker-coops.de",
      "sector": "Services",
      "location": "Sendling",
      "id": "WCOOP-0025",
      "lat": 48.1142747,
      "lng": 11.5481816,
      "remote": false
    },
    {
      "name": "Heizung und Sanitär Woltersdorf eG",
      "url": "https://www.hsweg.de",
      "description": "Heizungs- und Sanitärinstallation sowie regenerative Energien",
      "governance": "worker_majority",
      "legal_form": "eG",
      "source": "worker-coops.de",
      "sector": "Construction / Trades",
      "location": "Woltersdorf",
      "id": "WCOOP-0026",
      "lat": 52.45,
      "lng": 13.767,
      "remote": false
    },
    {
      "name": "Historiker Genossenschaft",
      "url": "https://historikergenossenschaft.de",
      "description": "",
      "governance": "worker_majority",
      "legal_form": "",
      "source": "worker-coops.de",
      "sector": "Services",
      "location": "Hammerbrook",
      "id": "WCOOP-0027",
      "lat": 53.5466015,
      "lng": 10.0197615,
      "remote": false
    },
    {
      "name": "Holzverbindung",
      "url": "https://www.holzverbindung.net/",
      "description": "",
      "governance": "worker_majority",
      "legal_form": "",
      "source": "worker-coops.de",
      "sector": "Woodworking / Carpentry",
      "location": "Hindenburgstraße",
      "id": "WCOOP-0028",
      "lat": 48.4857514,
      "lng": 9.2063686,
      "remote": false
    },
    {
      "name": "Hostsharing",
      "url": "https://www.hostsharing.net/",
      "description": "",
      "governance": "worker_majority",
      "legal_form": "",
      "source": "github-tech-coops",
      "sector": "IT / Software",
      "location": "Flughafenstraße",
      "id": "WCOOP-0029",
      "lat": 53.6386749,
      "lng": 10.0150938,
      "remote": false,
      "wikidata_id": "Q1521990"
    },
    {
      "name": "INF",
      "url": "https://inf.coop/",
      "description": "Founded in 2023",
      "governance": "worker_majority",
      "legal_form": "",
      "source": "github-tech-coops",
      "sector": "IT / Software",
      "location": "Mannheim, Germany",
      "id": "WCOOP-0030",
      "lat": 49.488,
      "lng": 8.466,
      "remote": false
    },
    {
      "name": "iteratec nurdemteam",
      "url": "https://www.iteratec-nurdemteam.org/",
      "description": "",
      "governance": "worker_majority",
      "legal_form": "",
      "source": "worker-coops.de",
      "sector": "IT / Software",
      "location": "München",
      "id": "WCOOP-0031",
      "lat": 48.1198055,
      "lng": 11.6028367,
      "remote": false
    },
    {
      "name": "Jointech",
      "url": "https://jointech.org",
      "description": "",
      "governance": "unknown",
      "legal_form": "",
      "source": "wikipedia",
      "sector": "Other",
      "location": "Dresden",
      "id": "WCOOP-0032",
      "lat": 51.0811105,
      "lng": 13.7318491,
      "remote": false
    },
    {
      "name": "Kartoffelkombinat eG",
      "url": "https://www.kartoffelkombinat.de/",
      "description": "",
      "governance": "governance_based",
      "legal_form": "eG",
      "source": "worker-coops.de",
      "sector": "Food / Agriculture",
      "location": "München",
      "id": "WCOOP-0033",
      "lat": 48.1205066,
      "lng": 11.5441327,
      "remote": false
    },
    {
      "name": "Katringer Grünzeug eG",
      "url": "https://katringer-gruenzeug.de/",
      "description": "",
      "governance": "governance_based",
      "legal_form": "eG",
      "source": "worker-coops.de",
      "sector": "Food / Agriculture",
      "location": "Unkel",
      "id": "WCOOP-0034",
      "lat": 50.5825251,
      "lng": 7.2378214,
      "remote": false
    },
    {
      "name": "Klempnerei-, Installations- und Rohrleitungsbau Genossenschaft eG",
      "url": "https://www.klempnerei-gen.de",
      "description": "Klempnerei- und Installationsarbeiten",
      "governance": "worker_majority",
      "legal_form": "eG",
      "source": "worker-coops.de",
      "sector": "Construction / Trades",
      "location": "Harburg",
      "id": "WCOOP-0035",
      "lat": 53.4570733,
      "lng": 9.9718151,
      "remote": false
    },
    {
      "name": "KOLA Leipzig eG",
      "url": "https://kolaleipzig.de/",
      "description": "",
      "governance": "governance_based",
      "legal_form": "eG",
      "source": "worker-coops.de",
      "sector": "Food / Agriculture",
      "location": "Taucha",
      "id": "WCOOP-0036",
      "lat": 51.390122,
      "lng": 12.5080267,
      "remote": false
    },
    {
      "name": "Metallverarbeitung „Grünes Herz“ eG",
      "url": "https://www.gruenes-herz-eg.de",
      "description": "Hersteller von Verbindungsteilen",
      "governance": "worker_majority",
      "legal_form": "eG",
      "source": "worker-coops.de",
      "sector": "Metalworking",
      "location": "Steinbach-Hallenberg",
      "id": "WCOOP-0037",
      "lat": 50.6941618,
      "lng": 10.5929218,
      "remote": false
    },
    {
      "name": "Miraphone",
      "url": "https://www.miraphone.de/",
      "description": "Blechblasinstrumentehersteller aus Bayern",
      "governance": "worker_majority",
      "legal_form": "",
      "source": "worker-coops.de",
      "sector": "Manufacturing",
      "location": "Waldkraiburg",
      "id": "WCOOP-0038",
      "lat": 48.2158156,
      "lng": 12.4143825,
      "remote": false,
      "wikidata_id": "Q1938515"
    },
    {
      "name": "Village One",
      "url": "https://www.village.one",
      "description": "Kreativagentur",
      "governance": "worker_majority",
      "legal_form": "eG",
      "source": "wikipedia",
      "sector": "IT / Software",
      "location": "Reinickendorf",
      "id": "WCOOP-0039",
      "lat": 52.5739368,
      "lng": 13.3225235,
      "remote": false
    },
    {
      "name": "oose",
      "url": "https://www.oose.de/",
      "description": "",
      "governance": "worker_majority",
      "legal_form": "",
      "source": "worker-coops.de",
      "sector": "IT / Software",
      "location": "Altona-Altstadt",
      "id": "WCOOP-0040",
      "lat": 53.5502477,
      "lng": 9.9470432,
      "remote": false
    },
    {
      "name": "Paramour Collective",
      "url": "https://www.paramourcollective.com",
      "description": "ethische Sexarbeit [Remote-first, no public office address]",
      "governance": "worker_majority",
      "legal_form": "",
      "source": "worker-coops.de",
      "sector": "Services",
      "location": "Leipzig",
      "id": "WCOOP-0041",
      "lat": 51.34,
      "lng": 12.375,
      "remote": true
    },
    {
      "name": "Produktivgenossenschaft der Bau- und Kunstschlosser eG",
      "url": "https://produktivschlosser.de/",
      "description": "",
      "governance": "worker_majority",
      "legal_form": "eG",
      "source": "worker-coops.de",
      "sector": "Metalworking / Construction",
      "location": "Bayern",
      "id": "WCOOP-0042",
      "lat": 49.453872,
      "lng": 11.077298,
      "remote": false
    },
    {
      "name": "Raumwärme Ofenbauer & Fliesenleger Freital eG",
      "url": "https://www.raumwaerme.de/",
      "description": "Ofenbau und Fliesenlegung",
      "governance": "worker_majority",
      "legal_form": "eG",
      "source": "worker-coops.de",
      "sector": "Construction / Trades",
      "location": "Weißig",
      "id": "WCOOP-0043",
      "lat": 50.9978661,
      "lng": 13.6355822,
      "remote": false
    },
    {
      "name": "Reinblau",
      "url": "https://reinblau.coop/",
      "description": "",
      "governance": "worker_majority",
      "legal_form": "",
      "source": "worker-coops.de",
      "sector": "IT / Software",
      "location": "Kreuzberg",
      "id": "WCOOP-0044",
      "lat": 52.4901836,
      "lng": 13.4164423,
      "remote": false
    },
    {
      "name": "Remstal Cleaners eG",
      "url": "https://rtcleaners.de",
      "description": "demokratische Gebäudereinigung",
      "governance": "worker_majority",
      "legal_form": "eG",
      "source": "worker-coops.de",
      "sector": "Cleaning / Maintenance",
      "location": "Schwaikheim",
      "id": "WCOOP-0045",
      "lat": 48.8750444,
      "lng": 9.350297,
      "remote": false
    },
    {
      "name": "Robur",
      "url": "https://robur.coop",
      "description": "[Remote-first, no public office address]",
      "governance": "worker_majority",
      "legal_form": "",
      "source": "github-tech-coops",
      "sector": "IT / Software",
      "location": "Berlin, Germany",
      "id": "WCOOP-0046",
      "lat": 52.52,
      "lng": 13.405,
      "remote": true
    },
    {
      "name": "roko.li",
      "url": "https://roko.li",
      "description": "",
      "governance": "worker_majority",
      "legal_form": "",
      "source": "github-tech-coops",
      "sector": "IT / Software",
      "location": "Potsdam",
      "id": "WCOOP-0047",
      "lat": 52.39,
      "lng": 13.064,
      "remote": false
    },
    {
      "name": "Roots of Compassion eG",
      "url": "https://www.rootsofcompassion.org/de",
      "description": "",
      "governance": "worker_majority",
      "legal_form": "eG",
      "source": "worker-coops.de",
      "sector": "Services",
      "location": "Rudolf-Diesel-Straße",
      "id": "WCOOP-0048",
      "lat": 51.9899662,
      "lng": 7.6686403,
      "remote": false
    },
    {
      "name": "Roter Faden",
      "url": "https://www.roterfaden.de",
      "description": "",
      "governance": "worker_majority",
      "legal_form": "",
      "source": "worker-coops.de",
      "sector": "Design / Crafts",
      "location": "66111",
      "id": "WCOOP-0049",
      "lat": 49.2315049,
      "lng": 7.0011967,
      "remote": false
    },
    {
      "name": "She said",
      "url": "https://www.shesaid.de",
      "description": "",
      "governance": "in_founding",
      "legal_form": "",
      "source": "worker-coops.de",
      "sector": "Other",
      "location": "Kreuzberg",
      "id": "WCOOP-0050",
      "lat": 52.4901836,
      "lng": 13.4164423,
      "remote": false
    },
    {
      "name": "SuperCoop eG",
      "url": "https://supercoop.de/",
      "description": "",
      "governance": "governance_based",
      "legal_form": "eG",
      "source": "worker-coops.de",
      "sector": "Food / Agriculture",
      "location": "Wedding",
      "id": "WCOOP-0051",
      "lat": 52.5490442,
      "lng": 13.365515,
      "remote": false
    },
    {
      "name": "Superpeers eG",
      "url": "https://superpeers.de/",
      "description": "",
      "governance": "worker_majority",
      "legal_form": "eG",
      "source": "worker-coops.de",
      "sector": "IT / Software",
      "location": "Eilbek",
      "id": "WCOOP-0052",
      "lat": 53.5678752,
      "lng": 10.0479947,
      "remote": false
    },
    {
      "name": "Syndicats",
      "url": "https://www.syndicats.co/",
      "description": "[Remote-first, no public office address]",
      "governance": "worker_majority",
      "legal_form": "",
      "source": "github-tech-coops",
      "sector": "IT / Software",
      "location": "Hamburg, Germany",
      "id": "WCOOP-0053",
      "lat": 53.55,
      "lng": 9.993,
      "remote": true
    },
    {
      "name": "taz",
      "url": "https://taz.de/",
      "description": "",
      "governance": "statute_based",
      "legal_form": "",
      "source": "worker-coops.de",
      "sector": "Printing / Publishing",
      "location": "Kreuzberg",
      "id": "WCOOP-0054",
      "lat": 52.5032095,
      "lng": 13.3913904,
      "remote": false,
      "wikidata_id": "Q157838"
    },
    {
      "name": "TechGenossen",
      "url": "https://techgenossen.de/",
      "description": "Founded 2015",
      "governance": "worker_majority",
      "legal_form": "",
      "source": "github-tech-coops",
      "sector": "IT / Software",
      "location": "Ramersdorf-Perlach",
      "id": "WCOOP-0055",
      "lat": 48.1099177,
      "lng": 11.6406167,
      "remote": false
    },
    {
      "name": "tricargo eG",
      "url": "https://www.tricargo.de/",
      "description": "",
      "governance": "worker_majority",
      "legal_form": "eG",
      "source": "worker-coops.de",
      "sector": "Logistics / Transport",
      "location": "Altona-Nord",
      "id": "WCOOP-0056",
      "lat": 53.5662201,
      "lng": 9.9458977,
      "remote": false
    },
    {
      "name": "UNI:CODE IT Solutions",
      "url": "https://unicode-it.de",
      "description": "",
      "governance": "worker_majority",
      "legal_form": "",
      "source": "github-tech-coops",
      "sector": "IT / Software",
      "location": "Bad Oldesloe-Land",
      "id": "WCOOP-0057",
      "lat": 53.8417892,
      "lng": 10.3129898,
      "remote": false
    },
    {
      "name": "WAO Co-op",
      "url": "https://weareopen.coop",
      "description": "Making sense of complex problems while spreading the benefits of open. Part of [CoTech](https://coops.tech) [Remote-first, no public office address]",
      "governance": "worker_majority",
      "legal_form": "",
      "source": "github-tech-coops",
      "sector": "IT / Software",
      "location": "UK / Germany",
      "id": "WCOOP-0058",
      "lat": 51.165,
      "lng": 10.451,
      "remote": true
    },
    {
      "name": "wechange eG",
      "url": "https://wechange.de",
      "description": "",
      "governance": "worker_majority",
      "legal_form": "eG",
      "source": "github-tech-coops",
      "sector": "IT / Software",
      "location": "Tempelhof",
      "id": "WCOOP-0059",
      "lat": 52.464347,
      "lng": 13.4083952,
      "remote": false
    },
    {
      "name": "WTF Kooperative eG",
      "url": "https://wtf-eg.de/",
      "description": "eG legal German Coop, founded 2020",
      "governance": "worker_majority",
      "legal_form": "eG",
      "source": "github-tech-coops",
      "sector": "IT / Software",
      "location": "Winterhude",
      "id": "WCOOP-0060",
      "lat": 53.5914191,
      "lng": 10.0220028,
      "remote": false
    },
    {
      "name": "IT-Projektgenossenschaft eG",
      "url": "https://www.it-projekt-eg.de",
      "description": "Worker-owned IT staffing cooperative; members are co-owners.",
      "sector": "IT / Software",
      "location": "München",
      "lat": 48.137,
      "lng": 11.575,
      "legal_form": "eG",
      "governance": "worker_majority",
      "source": "perplexity-research",
      "remote": false
    },
    {
      "name": "Smart Genossenschaft eG (SmartDe)",
      "url": "https://smartde.coop",
      "description": "Freelancer cooperative employing its members; members work across IT, consulting, creative services.",
      "sector": "IT / Software",
      "location": "Berlin",
      "lat": 48.137,
      "lng": 11.575,
      "legal_form": "eG",
      "governance": "worker_majority",
      "source": "perplexity-research",
      "remote": false
    }
  ],
  "homepage": "https://ravidvr.github.io/german-worker-coops/"
}